[
    {
        "id": "50f0fc2b-6ae0-4d52-adb3-28cbf3158c0c",
        "name": "Adrian Fischer",
        "location": {
            "latitude": 20.28527,
            "longitude": -103.42897
        },
        "age": 85,
        "accepted_offers": 78,
        "canceled_offers": 12,
        "average_reply_time": 781,
        "score": 8
    },
    {
        "id": "4a814d53-964d-4b77-a025-f0ae35354579",
        "name": "Chris Cook",
        "location": {
            "latitude": 19.32932,
            "longitude": -98.1664
        },
        "age": 65,
        "accepted_offers": 91,
        "canceled_offers": 11,
        "average_reply_time": 1386,
        "score": 8
    },
    {
        "id": "98ba0f0e-120d-4126-9da5-3b38d1aa6c5e",
        "name": "Christine Harris",
        "location": {
            "latitude": 19.32889,
            "longitude": -99.32556
        },
        "age": 33,
        "accepted_offers": 95,
        "canceled_offers": 0,
        "average_reply_time": 1202,
        "score": 8
    },
    {
        "id": "e413961f-68c6-4d5e-8277-52fe61f68c6e",
        "name": "Joseph Fitzgerald",
        "location": {
            "latitude": 21.01858,
            "longitude": -101.2591
        },
        "age": 77,
        "accepted_offers": 97,
        "canceled_offers": 5,
        "average_reply_time": 2314,
        "score": 8
    },
    {
        "id": "ee65afeb-1b67-4518-b0bf-7f14b6d066f2",
        "name": "Gregory Deleon",
        "location": {
            "latitude": 19.04222,
            "longitude": -98.11889
        },
        "age": 30,
        "accepted_offers": 87,
        "canceled_offers": 0,
        "average_reply_time": 990,
        "score": 8
    },
    {
        "id": "baaa6300-62b2-4fd5-91c6-a2e46f48744f",
        "name": "Audrey Lawson",
        "location": {
            "latitude": 19.04222,
            "longitude": -98.11889
        },
        "age": 35,
        "accepted_offers": 97,
        "canceled_offers": 18,
        "average_reply_time": 128,
        "score": 8
    },
    {
        "id": "5acecdbf-dbb5-4fc2-9cff-c96ebd03c81f",
        "name": "Jeffrey Wilson",
        "location": {
            "latitude": 19.04222,
            "longitude": -98.11889
        },
        "age": 21,
        "accepted_offers": 98,
        "canceled_offers": 22,
        "average_reply_time": 59,
        "score": 8
    },
    {
        "id": "09cef0ea-d6ca-4f41-adf1-fe3fefd9373e",
        "name": "John Miller",
        "location": {
            "latitude": 21.01858,
            "longitude": -101.2591
        },
        "age": 64,
        "accepted_offers": 82,
        "canceled_offers": 12,
        "average_reply_time": 414,
        "score": 8
    },
    {
        "id": "1426a5dc-3536-463b-8768-a5c99d0a4fac",
        "name": "Joshua Love",
        "location": {
            "latitude": 20.28527,
            "longitude": -103.42897
        },
        "age": 61,
        "accepted_offers": 94,
        "canceled_offers": 0,
        "average_reply_time": 810,
        "score": 8
    },
    {
        "id": "0d1886c2-90ee-4951-b648-7b1e944846ec",
        "name": "Mary Baker",
        "location": {
            "latitude": 19.04222,
            "longitude": -98.11889
        },
        "age": 30,
        "accepted_offers": 100,
        "canceled_offers": 4,
        "average_reply_time": 410,
        "score": 8
    }
]