[
    {
        "id": "86610b8d-449c-4ebf-8215-93c8c44ac09a",
        "name": "Heather Chase",
        "location": {
            "latitude": 19.04222,
            "longitude": -98.11889
        },
        "age": 83,
        "accepted_offers": 100,
        "canceled_offers": 9,
        "average_reply_time": 367,
        "score": 9
    },
    {
        "id": "d69708b6-153e-469a-89ef-cedce5eec1bc",
        "name": "Sara Robles",
        "location": {
            "latitude": 20.74122,
            "longitude": -100.44843
        },
        "age": 82,
        "accepted_offers": 95,
        "canceled_offers": 7,
        "average_reply_time": 57,
        "score": 9
    },
    {
        "id": "707fbe51-981b-450c-a439-968be7c938b5",
        "name": "Jennifer Pugh",
        "location": {
            "latitude": 19.04222,
            "longitude": -98.11889
        },
        "age": 69,
        "accepted_offers": 97,
        "canceled_offers": 6,
        "average_reply_time": 278,
        "score": 9
    },
    {
        "id": "a8131514-c8cf-492d-8e23-3e70da15c323",
        "name": "Peter Valenzuela",
        "location": {
            "latitude": 19.32889,
            "longitude": -99.32556
        },
        "age": 81,
        "accepted_offers": 94,
        "canceled_offers": 2,
        "average_reply_time": 194,
        "score": 9
    },
    {
        "id": "50f0fc2b-6ae0-4d52-adb3-28cbf3158c0c",
        "name": "Adrian Fischer",
        "location": {
            "latitude": 20.28527,
            "longitude": -103.42897
        },
        "age": 85,
        "accepted_offers": 78,
        "canceled_offers": 12,
        "average_reply_time": 781,
        "score": 8
    },
    {
        "id": "4a814d53-964d-4b77-a025-f0ae35354579",
        "name": "Chris Cook",
        "location": {
            "latitude": 19.32932,
            "longitude": -98.1664
        },
        "age": 65,
        "accepted_offers": 91,
        "canceled_offers": 11,
        "average_reply_time": 1386,
        "score": 8
    },
    {
        "id": "98ba0f0e-120d-4126-9da5-3b38d1aa6c5e",
        "name": "Christine Harris",
        "location": {
            "latitude": 19.32889,
            "longitude": -99.32556
        },
        "age": 33,
        "accepted_offers": 95,
        "canceled_offers": 0,
        "average_reply_time": 1202,
        "score": 8
    },
    {
        "id": "e413961f-68c6-4d5e-8277-52fe61f68c6e",
        "name": "Joseph Fitzgerald",
        "location": {
            "latitude": 21.01858,
            "longitude": -101.2591
        },
        "age": 77,
        "accepted_offers": 97,
        "canceled_offers": 5,
        "average_reply_time": 2314,
        "score": 8
    },
    {
        "id": "ee65afeb-1b67-4518-b0bf-7f14b6d066f2",
        "name": "Gregory Deleon",
        "location": {
            "latitude": 19.04222,
            "longitude": -98.11889
        },
        "age": 30,
        "accepted_offers": 87,
        "canceled_offers": 0,
        "average_reply_time": 990,
        "score": 8
    },
    {
        "id": "baaa6300-62b2-4fd5-91c6-a2e46f48744f",
        "name": "Audrey Lawson",
        "location": {
            "latitude": 19.04222,
            "longitude": -98.11889
        },
        "age": 35,
        "accepted_offers": 97,
        "canceled_offers": 18,
        "average_reply_time": 128,
        "score": 8
    }
]